City_ID,City,Lat,Lng,Max Temp,Humidity,Cloudiness,Wind Speed,Country,Date
0,armacao de buzios,-22.7469,-41.8817,21.45,86,0,1.38,BR,1683176880
1,yellowknife,62.456,-114.3525,13.09,50,27,2.68,CA,1683176983
2,waitangi,-43.9535,-176.5597,16.01,87,35,4.47,NZ,1683176983
3,nemuro,43.3236,145.575,12.04,74,82,5.22,JP,1683176983
4,grytviken,-54.2811,-36.5092,3.25,98,100,4.95,GS,1683176918
5,bilibino,68.0546,166.4372,-5.77,73,100,2.03,RU,1683176918
6,port-aux-francais,-49.35,70.2167,7.05,95,86,10.77,TF,1683176919
7,ghanzi,-21.5667,21.7833,18.92,43,28,2.93,BW,1683176983
8,laguna,38.421,-121.4238,14.43,64,100,2.06,US,1683176984
9,edinburgh of the seven seas,-37.0676,-12.3116,17.79,81,80,9.16,SH,1683176919
10,utrik,11.2278,169.8474,26.99,79,94,6.86,MH,1683176984
11,tiksi,71.6872,128.8694,-0.56,89,68,9.49,RU,1683176984
12,jamestown,42.097,-79.2353,7.77,89,100,5.66,US,1683176777
13,vilhena,-12.7406,-60.1458,19.88,97,30,0.87,BR,1683176984
14,jorpeland,59.0225,6.0408,5.61,83,100,1.14,NO,1683176985
15,invercargill,-46.4,168.35,14.57,88,64,2.4,NZ,1683176728
16,blackmans bay,-43.0167,147.3167,14.29,62,50,1.92,AU,1683176985
17,fortaleza,-3.7227,-38.5247,27.9,83,20,2.06,BR,1683176714
18,tralee,52.2704,-9.7026,10.25,87,92,4.69,IE,1683176918
19,alstonville,-28.8333,153.4333,22.86,51,0,4.62,AU,1683176985
20,bethel,41.3712,-73.414,9.2,83,100,0.0,US,1683176986
21,iqaluit,63.7506,-68.5145,-4.15,79,75,3.6,CA,1683176744
22,hilo,19.7297,-155.09,22.93,91,100,6.17,US,1683176986
23,ribeira grande,38.5167,-28.7,17.1,94,81,7.15,PT,1683176986
24,magistral'nyy,56.1725,107.4458,8.65,54,27,0.89,RU,1683176986
25,new norfolk,-42.7826,147.0587,14.95,69,44,0.9,AU,1683176987
26,meung-sur-loire,47.8312,1.6958,10.62,88,0,2.57,FR,1683176987
27,capinzal,-27.3436,-51.6119,19.06,99,92,0.82,BR,1683176987
28,catabola,-12.15,17.2833,12.54,72,36,1.26,AO,1683176987
29,nova vicosa,-17.8919,-39.3719,23.42,88,0,1.87,BR,1683176987
30,guerrero negro,27.9769,-114.0611,14.4,68,12,6.89,MX,1683176987
31,adamstown,-25.066,-130.1015,24.63,67,58,2.47,PN,1683176917
32,vranje,42.5514,21.9003,10.62,94,100,1.54,RS,1683176988
33,port elizabeth,-33.918,25.5701,16.29,97,0,4.12,ZA,1683176988
34,lebu,-37.6167,-73.65,10.43,86,8,7.06,CL,1683176988
35,ushuaia,-54.8,-68.3,3.81,87,100,3.09,AR,1683176988
36,singtam,27.2333,88.5,27.57,49,86,0.97,IN,1683176988
37,calama,-22.4667,-68.9333,9.27,23,0,6.17,CL,1683176867
38,an nuhud,12.7,28.4333,27.18,8,93,3.49,SD,1683176989
39,ad dawadimi,24.5077,44.3924,27.84,16,61,8.78,SA,1683176989
40,carnarvon,-24.8667,113.6333,27.16,44,2,4.47,AU,1683176989
41,thunder bay,48.4001,-89.3168,3.99,87,100,2.57,CA,1683176753
42,albany,42.6001,-73.9662,7.45,89,100,2.38,US,1683176771
43,roja,57.5,22.8167,3.97,69,97,3.87,LV,1683176989
44,nar'yan-mar,67.6713,53.087,0.59,99,100,4.32,RU,1683176990
45,nishon tumani,38.694,65.6751,24.14,31,0,4.12,UZ,1683176990
46,east london,-33.0153,27.9116,16.8,79,0,2.05,ZA,1683176990
47,aleksandrovsk-sakhalinskiy,50.8975,142.1561,8.41,72,65,3.16,RU,1683176990
48,darovskoy,58.77,47.9564,9.3,60,98,3.58,RU,1683176990
49,carboneras,37.0015,-1.9213,16.29,63,67,1.59,ES,1683176990
50,bonanza,14.0289,-84.591,22.39,89,96,0.48,NI,1683176990
51,manthani,18.65,79.6667,31.7,51,5,3.18,IN,1683176991
52,port mathurin,-19.6833,63.4167,25.71,77,17,5.11,MU,1683176991
53,sampit,-2.5333,112.95,33.94,53,97,0.91,ID,1683176991
54,san antonio de pale,-1.4014,5.6325,27.62,76,87,0.93,GQ,1683176991
55,trinidad,-14.8333,-64.9,19.45,89,68,1.6,BO,1683176991
56,yuzhno-kurilsk,44.0306,145.8556,12.06,72,89,3.41,RU,1683176991
57,uturoa,-16.7333,-151.4333,27.95,78,27,9.2,PF,1683176992
58,bichura,50.5881,107.6022,6.12,56,100,1.57,RU,1683176992
59,ilulissat,69.2167,-51.1,1.01,93,100,7.2,GL,1683176992
60,kapuskasing,49.4169,-82.4331,4.26,97,100,1.99,CA,1683176854
61,st. john's,47.5649,-52.7093,3.87,96,100,1.79,CA,1683176992
62,stanley,54.868,-1.6985,6.54,86,75,3.09,GB,1683176993
63,fortuna,40.5982,-124.1573,11.07,91,100,0.45,US,1683176993
64,kotido,2.9806,34.1331,20.9,81,80,2.83,UG,1683176993
65,vaxjo,56.8777,14.8091,5.7,84,0,3.6,SE,1683176993
66,matoury,4.8483,-52.3317,25.98,78,40,1.54,GF,1683176993
67,udachny,66.4167,112.4,1.89,80,86,6.61,RU,1683176993
68,masterton,-40.9597,175.6575,16.05,98,100,1.78,NZ,1683176994
69,santiago de cao,-7.9589,-79.2392,22.07,88,40,2.57,PE,1683176994
70,moengo,5.6167,-54.4,22.32,93,88,1.04,SR,1683176994
71,al muwayh,22.4333,41.7583,27.22,19,3,0.9,SA,1683176994
72,itoman,26.1247,127.6694,27.01,74,75,7.2,JP,1683176994
73,punta arenas,-53.15,-70.9167,8.06,81,75,7.72,CL,1683176994
74,midvagur,62.0511,-7.1939,6.46,75,100,7.2,FO,1683176995
75,wailua homesteads,22.0669,-159.378,26.24,81,75,7.72,US,1683176995
76,opuwo,-18.0607,13.84,17.95,40,2,2.38,NA,1683176995
77,thompson,55.7435,-97.8558,1.6,92,80,1.84,CA,1683176995
78,avarua,-21.2078,-159.775,25.03,88,75,6.69,CK,1683176995
79,polyarnyy,69.1989,33.4478,-0.93,73,100,11.0,RU,1683176995
80,puerto natales,-51.7236,-72.4875,8.46,79,99,9.92,CL,1683176919
81,nyurba,63.2842,118.3319,3.22,91,100,4.81,RU,1683176996
82,mhasvad,17.6333,74.7833,29.85,39,71,2.41,IN,1683176996
83,port alfred,-33.5906,26.891,17.12,85,0,3.2,ZA,1683176917
84,marsh harbour,26.5412,-77.0636,24.2,66,35,2.39,BS,1683176722
85,nantucket,41.2835,-70.0995,9.08,92,100,4.63,US,1683176996
86,aoulef,26.9667,1.0833,26.91,14,36,4.33,DZ,1683176996
87,mufulira,-12.5498,28.2407,11.84,85,1,1.5,ZM,1683176996
88,ulverstone,-41.15,146.1667,15.67,73,7,2.67,AU,1683176759
89,whitehorse,60.7161,-135.0538,6.43,33,20,3.09,CA,1683176339
90,klyuchi,52.2667,79.1667,12.66,30,30,3.75,RU,1683176997
91,talnakh,69.4865,88.3972,-2.66,94,100,3.99,RU,1683176997
92,sinsang-ni,39.6503,127.4058,22.68,50,100,3.1,KP,1683176998
93,conduaga,8.862,117.4893,30.13,70,98,2.97,PH,1683176998
94,isafjordur,66.0755,-23.124,3.71,75,100,0.66,IS,1683176998
95,lihue,21.9789,-159.3672,26.58,81,75,7.72,US,1683176903
96,puerto colombia,10.9878,-74.9547,28.05,81,4,8.99,CO,1683176998
97,longyearbyen,78.2186,15.6401,-4.09,93,75,1.54,SJ,1683176998
98,zaragoza,41.6561,-0.8773,16.12,58,0,1.54,ES,1683176905
99,nizhnesortymskiy,62.4397,71.7603,7.45,97,100,7.03,RU,1683176999
100,dawei,14.0833,98.2,34.65,51,70,4.17,MM,1683176999
101,puerto ayora,-0.7393,-90.3518,25.86,95,19,2.23,EC,1683176999
102,makoua,0.0069,15.6333,21.48,98,76,1.18,CG,1683176999
103,anadyr,64.75,177.4833,-4.72,74,0,3.0,RU,1683176999
104,kodinsk,58.6881,99.1844,7.37,68,100,3.28,RU,1683177000
105,papatowai,-46.5619,169.4708,14.23,91,28,2.65,NZ,1683177000
106,susuman,62.7833,148.1667,0.13,73,98,1.48,RU,1683177000
107,malmberget,67.1753,20.6549,-4.69,68,0,3.09,SE,1683177000
108,makueni boma,-1.8041,37.6203,18.61,87,41,0.58,KE,1683177001
109,ulladulla,-35.35,150.4667,19.32,56,35,3.2,AU,1683177001
110,fort st. john,56.2499,-120.8529,12.82,49,5,1.42,CA,1683177001
111,ichinoseki,38.9167,141.1333,24.63,26,25,3.92,JP,1683177001
112,mandal,25.45,74.5667,29.85,38,0,0.84,IN,1683176891
113,ghadamis,30.1337,9.5007,19.35,27,1,3.18,LY,1683177002
114,margaret river,-33.95,115.0667,19.69,49,43,5.36,AU,1683177002
115,vize,41.5725,27.7658,11.02,98,100,3.68,TR,1683177002
116,colonia,50.9333,6.95,9.98,69,0,1.54,DE,1683176833
117,hermanus,-34.4187,19.2345,13.78,84,3,0.77,ZA,1683177003
118,vila franca do campo,37.7167,-25.4333,17.23,91,77,5.26,PT,1683177003
119,soure,-0.7167,-48.5233,25.66,88,93,5.42,BR,1683177003
120,kimbe,-5.5502,150.1429,29.07,78,99,0.73,PG,1683177004
121,petropavlovsk-kamchatsky,53.0452,158.6483,7.33,53,40,6.0,RU,1683177004
122,bubaque,11.2833,-15.8333,25.9,85,90,4.26,GW,1683177004
123,georgetown,5.4112,100.3354,31.97,66,20,4.63,MY,1683176665
124,kismayo,-0.3582,42.5454,26.96,79,29,5.29,SO,1683177004
125,candelaria,13.9311,121.4233,30.22,58,77,3.76,PH,1683177005
126,ataq,14.5377,46.8319,25.28,55,100,1.72,YE,1683177005
127,hithadhoo,-0.6,73.0833,27.33,84,100,10.65,MV,1683177005
128,sidi aissa,35.8855,3.7724,15.54,31,97,1.12,DZ,1683177005
129,sanctuary point,-35.1114,150.629,19.3,57,20,3.63,AU,1683177005
130,kiiminki,65.1314,25.7974,-0.13,77,76,4.23,FI,1683177006
131,oranjemund,-28.55,16.4333,11.57,94,71,2.28,NA,1683177006
132,tura,25.5198,90.2201,23.93,79,79,0.86,IN,1683177006
133,bardai,11.65,7.2333,24.19,62,35,3.24,NG,1683177006
134,nuuk,64.1835,-51.7216,2.34,87,100,11.83,GL,1683177006
135,afaahiti,-17.75,-149.2833,27.81,82,26,9.79,PF,1683177007
136,inongo,-1.95,18.2667,21.86,96,100,1.66,CD,1683177007
137,sorong,-0.8833,131.25,28.69,80,34,4.42,ID,1683177007
138,al burayqah,30.4062,19.5739,18.39,73,0,4.9,LY,1683177007
139,uacu cungo,-11.3634,15.1208,14.25,75,31,1.63,AO,1683177007
140,grand falls-windsor,48.9332,-55.6649,3.06,94,100,0.45,CA,1683177008
141,aconibe,1.2968,10.9369,20.01,100,100,1.05,GQ,1683177008
142,atafu village,-8.5421,-172.5159,28.45,76,73,6.26,TK,1683177008
143,vorgashor,67.5833,63.95,0.23,99,100,3.91,RU,1683177009
144,howrah,22.5892,88.3103,30.0,70,75,4.12,IN,1683177009
145,bredasdorp,-34.5322,20.0403,11.22,92,0,1.74,ZA,1683177009
146,olonkinbyen,70.9221,-8.7187,-0.09,84,27,8.34,SJ,1683177009
147,guru har sahai,30.7167,74.4167,30.39,35,4,2.97,IN,1683177009
148,badger,64.8,-147.5333,4.95,62,100,3.09,US,1683177010
149,west island,-12.1568,96.8225,28.99,74,100,2.06,CC,1683177010
150,kani keli,-12.9536,45.1033,27.59,73,21,5.7,YT,1683177010
151,viedma,-40.8135,-62.9967,13.14,39,32,4.79,AR,1683176462
152,saipan,15.1355,145.701,31.39,100,0,6.69,MP,1683176919
153,sitka,57.0531,-135.33,7.94,66,0,1.54,US,1683176941
154,mount isa,-20.7333,139.5,30.87,33,28,4.63,AU,1683177011
155,chipinge,-20.1883,32.6236,13.79,88,43,1.51,ZW,1683177011
156,dzhangala,49.2167,50.3333,19.03,61,70,5.71,KZ,1683177011
157,cockburn town,21.4612,-71.1419,26.94,80,100,4.75,TC,1683176905
158,san patricio,28.017,-97.5169,24.35,92,69,2.29,US,1683176918
159,dizangue,3.7667,9.9833,23.2,97,89,0.91,CM,1683177012
160,tazovsky,67.4667,78.7,-1.25,87,100,2.31,RU,1683177012
161,arraial do cabo,-22.9661,-42.0278,22.39,82,0,1.77,BR,1683177012
162,san pedro pochutla,15.7333,-96.4667,28.17,70,42,1.73,MX,1683176474
163,turan,16.0678,108.2208,32.99,66,20,3.6,VN,1683176948
164,shagonar,51.5333,92.8,5.39,44,88,1.62,RU,1683177012
165,kristiansund,63.1115,7.732,2.36,80,20,1.54,NO,1683177013
166,kailua-kona,19.6406,-155.9956,26.98,87,75,4.63,US,1683176752
167,shingu,33.7333,135.9833,21.44,62,93,4.91,JP,1683177013
168,kiamba,5.9894,124.6242,30.41,72,74,2.24,PH,1683177013
169,dudinka,69.4058,86.1778,-2.43,91,85,3.6,RU,1683177013
170,nola,40.922,14.5329,16.07,92,77,2.37,IT,1683177014
171,mar del plata,-38.0023,-57.5575,10.53,77,0,0.89,AR,1683177014
172,qaqortoq,60.7167,-46.0333,0.27,71,45,0.74,GL,1683177014
173,agat village,13.3886,144.6585,31.52,67,40,6.17,GU,1683177014
174,kununurra,-15.7667,128.7333,30.99,27,0,4.12,AU,1683176759
175,vilyuchinsk,52.9306,158.4028,8.15,84,60,2.31,RU,1683177015
176,puerto baquerizo moreno,-0.9,-89.6,26.63,80,18,2.68,EC,1683177015
177,el calafate,-50.3408,-72.2768,7.05,75,4,6.14,AR,1683177015
178,severo-yeniseyskiy,60.3725,93.0408,4.5,75,100,4.29,RU,1683177015
179,constantia,44.1833,28.65,12.61,84,100,4.36,RO,1683177015
180,mejit,10.2753,170.8646,27.14,79,94,6.59,MH,1683177015
181,hawaiian paradise park,19.5933,-154.9731,22.73,93,100,6.17,US,1683177008
182,port lincoln,-34.7333,135.8667,17.12,61,100,5.91,AU,1683177016
183,fale old settlement,-9.3852,-171.2468,28.66,76,74,6.16,TK,1683177016
184,codrington,-38.2667,141.9667,16.61,47,57,3.18,AU,1683177016
185,novodvinsk,64.4165,40.8122,1.51,80,100,6.2,RU,1683177017
186,rawson,-43.3002,-65.1023,15.76,52,58,9.63,AR,1683177017
187,gobabis,-22.45,18.9667,20.15,36,79,0.55,NA,1683177017
188,kenai,60.5544,-151.2583,4.05,68,100,3.6,US,1683177017
189,vengurla,15.8667,73.6333,30.46,53,43,2.91,IN,1683177017
190,egilsstadir,65.2653,-14.3948,1.8,86,73,3.25,IS,1683177018
191,fort bragg,35.139,-79.006,13.75,50,0,4.02,US,1683177018
192,laminusa,5.5549,120.9136,29.04,72,84,2.22,PH,1683177018
193,ust-nera,64.5667,143.2,1.54,71,98,2.74,RU,1683177018
194,spanish springs,39.6491,-119.7074,10.17,66,0,8.23,US,1683176948
195,suzun,53.7841,82.3116,13.0,36,58,3.86,RU,1683177018
196,karratha,-20.7377,116.8463,31.78,25,0,6.37,AU,1683177019
197,rochester,43.1548,-77.6156,7.08,95,100,2.57,US,1683176818
198,meadow lake,34.8014,-106.5436,20.72,25,100,2.35,US,1683177019
199,rovinj,45.08,13.64,14.6,71,21,2.93,HR,1683177019
200,chibougamau,49.9168,-74.3659,2.19,97,100,3.58,CA,1683177019
201,khandyga,62.6667,135.6,4.67,67,39,2.3,RU,1683177019
202,kupang,-10.1667,123.5833,32.32,62,40,6.69,ID,1683177020
203,sturlic,45.0639,15.7781,9.51,92,97,1.55,BA,1683177020
204,makurazaki,31.2667,130.3167,18.5,85,100,7.26,JP,1683177020
205,black point,-34.6187,137.8972,16.22,62,70,4.32,AU,1683177020
206,baotou,40.6522,109.8222,16.66,82,100,2.73,CN,1683177004
207,ponta delgada,37.7333,-25.6667,17.4,88,40,7.2,PT,1683177020
208,camalu,30.85,-116.0667,13.08,69,1,1.28,MX,1683177021
209,qarah zia' od din,38.8915,45.0255,10.48,55,17,1.38,IR,1683177021
210,borgentreich,51.5692,9.2411,8.06,88,97,1.42,DE,1683177021
211,flying fish cove,-10.4217,105.6791,29.82,79,75,3.09,CX,1683177021
212,college,64.8569,-147.8028,4.99,62,99,3.09,US,1683177021
213,olyokminsk,60.3736,120.4264,6.65,60,96,5.22,RU,1683177022
214,ketchikan,55.3422,-131.6461,8.99,77,79,2.79,US,1683177022
215,westport,41.1415,-73.3579,10.18,82,93,1.79,US,1683176831
216,kodiak,57.79,-152.4072,3.73,87,100,10.8,US,1683177022
217,wang saphung,17.301,101.7685,37.08,33,18,2.97,TH,1683177022
218,muriti,-1.9833,32.9167,21.68,76,100,1.74,TZ,1683177023
219,happy valley-goose bay,53.3168,-60.3315,2.16,96,100,1.66,CA,1683177023
220,tolanaro,-25.0319,46.9987,21.92,76,88,4.76,MG,1683177023
221,acapulco de juarez,16.8634,-99.8901,27.9,78,20,1.03,MX,1683176765
222,borogontsy,62.6683,131.1683,3.86,75,91,4.64,RU,1683177023
223,glace bay,46.1969,-59.957,4.38,92,100,1.34,CA,1683177024
224,lerwick,60.1545,-1.1494,7.0,77,100,8.41,GB,1683177024
225,cimitarra,6.3142,-73.9497,23.49,95,90,1.82,CO,1683177024
226,gualeguay,-33.1416,-59.3097,9.06,83,41,2.78,AR,1683177024
227,haiku-pauwela,20.9219,-156.3051,24.01,70,40,7.72,US,1683177024
228,kinablangan,7.6947,126.5503,29.36,73,71,2.55,PH,1683177025
229,merritt island,28.5392,-80.672,21.0,62,0,5.14,US,1683177025
230,cambria,35.5641,-121.0808,10.69,92,100,2.24,US,1683177025
231,brisas de zicatela,15.8369,-97.0419,29.29,74,0,1.54,MX,1683176886
232,palmer,42.1584,-72.3287,8.62,82,100,2.57,US,1683177025
233,ulsteinvik,62.3432,5.8487,5.42,65,7,3.13,NO,1683177025
234,chonchi,-42.6128,-73.8092,10.07,95,97,0.88,CL,1683177026
235,la passe,45.5549,-0.8967,17.13,94,79,5.04,FR,1683177026
236,talara,-4.5772,-81.2719,25.2,80,82,5.99,PE,1683177026
237,madang,-5.2246,145.7966,29.77,70,100,2.06,PG,1683177026
238,piacabucu,-10.4056,-36.4344,24.5,88,10,2.4,BR,1683177026
239,omdurman,15.6445,32.4777,28.67,8,45,5.92,SD,1683177027
240,sivrice,38.4482,39.3084,9.56,50,0,0.51,TR,1683177027
241,salinopolis,-0.6136,-47.3561,24.92,94,98,6.39,BR,1683177027
242,labrador city,52.9463,-66.9114,3.49,92,100,3.83,CA,1683176919
243,maragogi,-9.0122,-35.2225,24.67,88,42,1.83,BR,1683177027
244,chifeng,42.2683,118.9636,24.51,30,87,6.63,CN,1683177028
245,lensk,60.7253,114.9278,6.45,60,64,5.85,RU,1683177028
246,tuzha,57.6062,47.936,8.2,88,100,3.32,RU,1683177028
247,puerto maldonado,-12.6,-69.1833,23.63,94,93,0.75,PE,1683177028
248,sept-iles,50.2001,-66.3821,6.14,90,100,0.89,CA,1683177028
249,chengam,12.3,78.8,27.22,72,100,0.95,IN,1683177028
250,nabire,-3.3667,135.4833,30.09,70,38,2.68,ID,1683177029
251,sola,-13.8833,167.55,27.96,75,40,7.18,VU,1683177029
252,antsiranana,-12.2787,49.2917,26.74,67,29,7.0,MG,1683177029
253,buka,40.8108,69.1986,16.95,23,25,3.58,UZ,1683177029
254,coronel dorrego,-38.7187,-61.2873,13.15,35,8,8.01,AR,1683177029
255,sabang,5.8933,95.3214,28.87,70,87,1.31,ID,1683177030
256,port saint john's,-31.6229,29.5448,18.03,87,0,2.14,ZA,1683177030
257,twon-brass,4.3151,6.2418,27.89,78,24,3.6,NG,1683177030
258,iskateley,67.6803,53.1512,0.49,99,100,4.39,RU,1683177030
259,mongoumba,3.6415,18.5936,20.61,96,100,0.46,CF,1683177030
260,fasa,28.9383,53.6482,22.58,17,0,3.09,IR,1683177031
261,dunedin,-45.8742,170.5036,14.33,98,13,0.89,NZ,1683177031
262,tyukalinsk,55.8732,72.1967,17.19,26,61,6.39,RU,1683177031
263,burang,30.25,81.1667,1.93,86,97,3.57,CN,1683177031
264,greymouth,-42.4667,171.2,16.28,90,5,2.79,NZ,1683176962
265,nova sintra,14.8667,-24.7167,21.22,77,68,6.87,CV,1683177031
266,ambon,-3.6954,128.1814,29.42,95,40,2.57,ID,1683177026
267,taksimo,56.3444,114.8794,6.8,40,100,2.9,RU,1683177032
268,kingston,17.997,-76.7936,25.13,91,94,1.04,JM,1683177032
269,sisimiut,66.9395,-53.6735,0.59,96,100,5.37,GL,1683177032
270,sinabang,2.4803,96.3801,27.86,80,98,1.92,ID,1683177032
271,aweil,8.7682,27.4002,27.69,54,100,1.84,SS,1683177033
272,tibana,46.9833,27.3333,11.97,68,100,3.41,RO,1683177033
273,concepcion del oro,24.6333,-101.4167,17.79,41,94,2.49,MX,1683177033
274,yuncheng,35.0231,110.9928,17.89,93,100,1.78,CN,1683177033
275,newman,37.3138,-121.0208,12.79,89,100,0.89,US,1683176963
276,kavieng,-2.5744,150.7967,29.11,71,46,3.34,PG,1683177033
277,acarau,-2.8856,-40.12,25.1,88,81,4.04,BR,1683176821
278,labasa,-16.4167,179.3833,26.25,82,26,4.82,FJ,1683177034
279,cullinan,-25.6709,28.5236,16.01,80,38,1.86,ZA,1683177034
280,minas de marcona,-15.2119,-75.1103,14.79,86,55,6.07,PE,1683177034
281,lospalos,-8.5186,127.0025,26.85,72,43,5.14,TL,1683177034
282,alaghsas,17.0187,8.0168,27.21,15,6,3.58,NE,1683177036
283,halberstadt,51.9,11.05,8.82,85,84,1.5,DE,1683177037
284,kayangel,8.0823,134.7173,28.86,73,100,5.35,PW,1683177037
285,aasiaat,68.7098,-52.8699,0.05,98,100,5.73,GL,1683177037
286,malango,-2.9627,119.9001,29.26,60,69,1.82,ID,1683177037
287,san fernando de apure,7.8878,-67.4724,28.2,50,17,1.73,VE,1683177037
288,usinsk,65.9939,57.5281,2.26,98,100,8.34,RU,1683177037
289,es castell,39.8795,4.2854,15.38,94,0,2.57,ES,1683177038
290,lompoc,34.6391,-120.4579,10.89,78,100,7.15,US,1683177038
291,formosa,-26.1775,-58.1781,16.09,98,100,0.89,AR,1683177038
292,kayes,14.0,-11.0,32.56,27,50,2.29,ML,1683177038
293,asaita,11.5636,41.4394,31.08,52,94,3.62,ET,1683177038
294,prince rupert,54.3161,-130.3201,7.53,87,95,1.64,CA,1683177038
295,ndende,-2.4008,11.3581,23.17,99,100,0.55,GA,1683177039
296,santa rosalia,27.3167,-112.2833,17.61,58,98,2.99,MX,1683177039
297,tofol,5.3248,163.0078,28.08,75,100,1.43,FM,1683177039
298,daru,-9.0763,143.2092,29.07,74,62,5.37,PG,1683177039
299,hirara,24.8,125.2833,25.15,88,69,6.86,JP,1683177039
300,portland,45.5234,-122.6762,17.64,77,100,2.24,US,1683176840
301,bakchar,57.0186,82.0711,13.12,36,100,2.03,RU,1683177040
302,zavolzhsk,57.4823,42.1378,7.4,64,21,2.1,RU,1683177040
303,dryden,49.7833,-92.7503,5.92,96,28,3.31,CA,1683177040
304,tomatlan,19.9333,-105.25,22.59,62,100,0.52,MX,1683177040
305,santa ana,33.7456,-117.8678,15.13,76,75,2.57,US,1683177040
306,turpan,42.9333,89.1667,16.28,31,100,2.39,CN,1683177040
307,orimattila,60.8049,25.7296,0.73,67,7,3.92,FI,1683177041
308,nazca,-14.8333,-74.95,20.65,74,5,1.88,PE,1683177041
309,linxia chengguanzhen,35.6003,103.2064,15.74,27,89,2.53,CN,1683177041
310,guateque,5.0062,-73.4727,14.88,95,84,1.07,CO,1683177041
311,el granada,37.5027,-122.4694,12.14,92,100,4.63,US,1683176955
312,lichinga,-13.3128,35.2406,15.05,82,40,5.14,MZ,1683177041
313,taro,-8.3862,115.28,27.0,60,46,1.7,ID,1683177042
314,kuqa,41.7278,82.9364,12.65,26,89,3.97,CN,1683177042
315,yichun,47.7,128.9,16.12,12,89,7.15,CN,1683177042
316,moree,-29.4667,149.85,21.82,23,0,5.35,AU,1683177042
317,coquimbo,-29.9533,-71.3436,10.85,93,75,2.57,CL,1683177030
318,grayvoron,50.4767,35.6773,12.52,74,100,3.05,RU,1683177042
319,vkhodnoy,54.9518,73.1711,15.94,17,0,7.15,RU,1683177043
320,tazacorte,28.629,-17.9293,19.54,78,75,3.58,ES,1683177043
321,fisterra,42.9049,-9.2629,15.57,90,2,7.75,ES,1683177043
322,taupo,-38.6833,176.0833,15.23,93,100,3.53,NZ,1683177043
323,budesti,44.2347,26.4658,11.45,96,100,4.77,RO,1683177043
324,shimokizukuri,40.8061,140.3861,21.96,47,65,5.94,JP,1683177043
325,luderitz,-26.6481,15.1594,13.44,69,10,4.65,NA,1683177044
326,kapa'a,22.0752,-159.319,26.99,80,75,7.72,US,1683177044
327,lorengau,-2.0226,147.2712,28.54,78,83,1.91,PG,1683177044
328,paradip garh,20.3167,86.6167,27.78,69,100,3.43,IN,1683177044
329,lijiang,26.8688,100.2207,23.04,30,22,4.3,CN,1683177044
330,margate,51.3813,1.3862,11.06,82,100,1.34,GB,1683176787
331,tshabong,-26.05,22.45,20.3,46,96,4.69,BW,1683177044
332,christiana,-27.914,25.1611,15.13,52,75,3.92,ZA,1683177045
333,horta,38.5333,-28.6333,16.68,94,79,7.15,PT,1683177045
334,ancud,-41.8697,-73.8203,8.9,92,83,0.7,CL,1683177045
335,pisco,-13.7,-76.2167,20.03,83,20,4.12,PE,1683177045
336,ixtapa,20.7,-105.2,24.01,88,75,0.0,MX,1683176995
337,shanghai,31.2222,121.4581,29.92,66,0,5.0,CN,1683176802
338,tidjikja,18.5564,-11.4271,28.52,8,7,6.21,MR,1683177046
339,wagar,16.1525,36.2032,29.64,20,16,2.46,SD,1683177046
340,kolokani,13.5728,-8.0339,29.98,38,52,2.38,ML,1683177046
341,toliara,-23.35,43.6667,20.99,68,0,4.83,MG,1683176807
342,saint-philippe,-21.3585,55.7679,25.06,82,68,4.45,RE,1683177047
343,nettetal,51.3167,6.2833,8.82,79,95,2.96,DE,1683177047
344,morehead city,34.7229,-76.726,13.33,59,0,5.66,US,1683176872
345,shiyan,32.6475,110.7781,27.16,56,80,1.34,CN,1683177047
346,mandera,3.9366,41.867,27.21,68,75,6.44,KE,1683177047
347,jodiya bandar,22.7167,70.2833,29.39,56,4,1.6,IN,1683176774
348,smithers,54.7804,-127.1743,13.18,50,0,3.6,CA,1683176513
349,camabatela,-8.1881,15.375,16.8,92,95,1.65,AO,1683177048
350,tonkino,57.3726,46.4629,7.98,78,100,2.05,RU,1683177048
351,kachug,53.9606,105.8817,10.19,31,54,0.92,RU,1683177048
352,enewetak,11.3474,162.3373,27.27,78,80,7.74,MH,1683177049
353,namibe,-15.1961,12.1522,23.19,78,1,1.82,AO,1683177049
354,hastings,50.8552,0.5729,11.07,36,100,7.12,GB,1683177049
355,nuku'alofa,-21.1333,-175.2,25.19,78,75,8.23,TO,1683177049
356,al jawf,29.5,38.75,23.53,19,1,7.67,SA,1683177049
357,ibimirim,-8.5406,-37.6903,21.04,92,3,1.53,BR,1683177049
358,tamanrasset,22.785,5.5228,18.95,14,0,1.03,DZ,1683177049
359,suining,30.508,105.5733,28.25,51,39,4.23,CN,1683177050
360,hotan,37.0997,79.9269,19.8,10,1,3.96,CN,1683177050
361,east porterville,36.0574,-118.9757,13.13,62,75,2.57,US,1683177050
362,pangody,65.85,74.4859,0.13,99,100,6.67,RU,1683177050
363,vadso,70.0744,29.7487,-1.51,80,75,7.72,NO,1683177050
364,wynyard,-41.0,145.7167,15.54,63,2,3.29,AU,1683177050
365,hamilton,39.1834,-84.5333,8.38,84,0,0.0,US,1683176881
366,ribeira brava,32.65,-17.0667,18.73,64,94,1.79,PT,1683177051
367,colares,38.7992,-9.4469,17.41,89,85,4.02,PT,1683177051
368,sidney,-33.8679,151.2073,22.16,53,3,1.34,AU,1683176752
369,gubkin,51.2817,37.5458,12.99,75,100,2.98,RU,1683177051
370,antofagasta,-23.65,-70.4,15.6,81,48,3.14,CL,1683177051
371,seven pagodas,12.6264,80.1722,33.03,65,100,0.34,IN,1683177052
372,tapa,59.2606,25.9586,0.71,69,95,4.46,EE,1683177052
373,kargil,34.5667,76.1,3.65,47,2,1.38,IN,1683177052
374,tarauaca,-8.1614,-70.7656,24.42,86,96,0.08,BR,1683177052
375,saldanha,-33.0117,17.9442,15.31,88,32,5.37,ZA,1683177052
376,blythe,33.6103,-114.5964,17.36,35,54,5.77,US,1683176810
377,praya,14.9215,-23.5087,25.3,50,0,7.2,CV,1683177053
378,tionk essil,12.7856,-16.5217,24.0,78,90,1.65,SN,1683177053
379,lone grove,34.1754,-97.2628,14.3,90,0,0.0,US,1683177053
380,ghiror,27.1833,78.8,27.49,53,53,2.59,IN,1683177053
381,morondava,-20.2833,44.2833,24.6,59,64,0.26,MG,1683176838
382,new haven,41.4001,-72.9329,9.51,89,100,2.57,US,1683177000
383,bokoro,12.3807,17.0568,31.09,41,95,3.12,TD,1683177054
384,jinan,36.6683,116.9972,17.4,89,100,3.4,CN,1683177054
385,sukhinichi,54.0999,35.3425,6.6,70,94,2.18,RU,1683177054
386,pirallahi,40.4723,50.333,18.08,63,96,1.3,AZ,1683177054
387,petlawad,23.0,74.8,32.07,32,39,2.78,IN,1683177054
388,katsuura,35.1333,140.3,20.69,65,0,8.39,JP,1683177054
389,bodaybo,57.8506,114.1933,5.51,66,98,2.62,RU,1683177055
390,debre sina,9.85,39.7667,14.76,60,48,0.09,ET,1683177055
391,parry sound,45.3501,-80.033,5.87,97,100,1.75,CA,1683177055
392,nchelenge,-9.3451,28.734,17.04,79,23,3.5,ZM,1683177055
393,korla,41.7597,86.1469,10.25,47,94,9.31,CN,1683177055
394,hasaki,35.7333,140.8333,26.79,64,0,9.93,JP,1683177055
395,pacific grove,36.6177,-121.9166,11.17,91,100,0.0,US,1683177056
396,tsiombe,-25.3,45.4833,21.79,73,12,5.95,MG,1683177056
397,qina,26.1642,32.7267,27.67,18,4,1.69,EG,1683177056
398,castillos,-34.1667,-53.8333,12.96,84,0,0.82,UY,1683177056
399,morinville,53.8001,-113.652,18.34,73,94,2.84,CA,1683177056
400,nadym,65.5333,72.5167,0.61,97,100,5.37,RU,1683177056
401,tomarza,38.4472,35.7992,6.8,32,59,0.61,TR,1683177057
402,kharkhorin,47.1975,102.8238,2.2,64,100,2.04,MN,1683177057
403,luza,60.6308,47.2512,6.48,61,43,5.04,RU,1683177057
404,gejiu,23.306,103.1635,26.11,30,0,6.72,CN,1683177057
405,laojunmiao,39.8333,97.7333,12.37,23,100,3.82,CN,1683177058
406,chhor,25.5167,69.7667,33.24,36,5,3.28,PK,1683177058
407,juarez,31.7333,-106.4833,25.45,20,75,7.2,MX,1683176918
408,san rafael,-34.6177,-68.3301,11.75,36,0,3.55,AR,1683177060
409,hyvinge,60.6333,24.8667,1.24,65,6,3.6,FI,1683177060
410,rasskazovo,52.6714,41.9033,13.11,78,91,2.74,RU,1683177060
411,praia da vitoria,38.7333,-27.0667,16.53,95,58,4.4,PT,1683177061
412,candido mendes,-1.4467,-45.7167,23.68,96,100,1.29,BR,1683177061
413,masumbwe,-3.6333,32.1833,18.62,93,77,0.14,TZ,1683177061
414,kabansk,52.0486,106.6528,7.51,39,100,3.24,RU,1683177061
415,leh,34.1667,77.5833,3.92,56,68,2.54,IN,1683176773
416,puerto deseado,-47.7503,-65.8938,13.62,51,76,10.39,AR,1683177061
417,kostanay,53.1667,63.5833,16.16,23,0,6.0,KZ,1683177062
418,bochum,51.4833,7.2167,10.22,75,95,0.45,DE,1683177062
419,argo,37.6333,22.7333,15.44,66,67,1.13,GR,1683177062
420,francistown,-21.17,27.5079,15.19,64,0,2.96,BW,1683177063
421,conchas,-23.0153,-48.0106,16.99,79,5,0.97,BR,1683177063
422,saint-pierre,-21.3393,55.4781,26.43,83,100,4.63,RE,1683176996
423,lundazi,-12.2929,33.1782,15.55,84,0,2.97,ZM,1683177063
424,briare,47.6334,2.7438,12.01,92,81,3.74,FR,1683177064
425,jastrebarsko,45.6683,15.6486,12.65,100,85,1.13,HR,1683177064
426,gourcy,13.2167,-2.35,29.33,34,27,3.5,BF,1683177064
427,garachico,28.7781,-17.7646,18.06,64,75,2.57,ES,1683177064
428,yerofey pavlovich,53.9667,121.9667,7.25,36,100,5.0,RU,1683177064
429,gao,16.6362,1.637,29.92,26,4,3.77,ML,1683177064
430,mazagao,-0.115,-51.2894,25.03,99,98,1.71,BR,1683177065
431,kolondieba,11.0882,-6.8926,26.94,50,72,2.0,ML,1683177065
432,storm lake,42.6411,-95.2097,13.12,28,0,3.09,US,1683177065
433,inhambane,-23.865,35.3833,21.95,76,1,2.39,MZ,1683177065
434,carbonear,47.7332,-53.2148,4.12,96,100,5.89,CA,1683177065
435,tchintabaraden,15.8969,5.7985,29.97,21,5,3.13,NE,1683177065
436,touros,-5.1989,-35.4608,25.19,86,6,3.45,BR,1683177066
437,dalcahue,-42.3628,-73.7022,9.56,93,100,1.03,CL,1683177066
438,latakia,35.5148,35.7768,21.1,49,3,3.85,SY,1683177066
439,chebba,35.2372,11.115,16.61,72,0,5.62,TN,1683177066
440,porto belo,-27.1578,-48.5531,21.55,92,96,1.82,BR,1683176877
441,monte argentario,42.4345,11.1195,13.71,76,3,3.69,IT,1683177066
442,villa del totoral,-30.8167,-63.7167,13.1,36,92,2.25,AR,1683177067
443,ar rudayyif,34.3827,8.1555,15.53,49,51,3.38,TN,1683177067
444,richards bay,-28.783,32.0377,20.36,90,85,2.62,ZA,1683177067
445,remire-montjoly,4.9167,-52.2667,26.02,78,40,1.54,GF,1683177067
446,muhos,64.808,25.9931,-0.06,76,85,4.28,FI,1683177067
447,nossa senhora da gloria,-10.2183,-37.4203,21.06,97,2,1.83,BR,1683177067
448,meadow lakes,61.6247,-149.6011,3.19,90,100,1.54,US,1683177068
449,turiacu,-1.6633,-45.3717,23.58,95,99,1.57,BR,1683177068
450,dakhla,23.6848,-15.958,19.22,87,100,8.34,EH,1683177068
451,huilong,31.8111,121.655,23.48,80,90,9.95,CN,1683177068
452,port douglas,-16.4833,145.4667,26.33,70,54,6.85,AU,1683177068
453,korocha,50.8107,37.1953,13.4,77,91,3.19,RU,1683177068
454,quellon,-43.1167,-73.6167,11.14,93,100,2.06,CL,1683177069
455,camarinas,43.1311,-9.1817,15.66,91,10,7.57,ES,1683177069
456,mikashevichy,52.2173,27.476,8.03,82,89,2.07,BY,1683177069
457,marka,1.7159,44.7717,28.42,72,100,6.31,SO,1683177069
458,porto novo,6.4965,2.6036,25.88,87,92,2.02,BJ,1683177069
459,idri,27.5,13.2667,20.35,39,3,1.84,LY,1683177069
460,hoeyang,38.7103,127.5983,22.46,49,99,2.09,KP,1683177070
461,queenstown,-31.8976,26.8753,8.78,61,1,1.89,ZA,1683177070
462,fuglafjordur,62.244,-6.814,6.26,81,100,11.17,FO,1683177070
463,hadibu,12.65,54.0333,29.66,71,100,1.95,YE,1683177070
464,benjamin constant,-4.3831,-70.0311,24.07,98,34,0.26,BR,1683177070
465,male,4.1748,73.5089,27.35,76,100,6.89,MV,1683177070
466,timbuktu,16.7735,-3.0074,30.79,9,0,3.17,ML,1683177071
467,al badari,26.9926,31.4155,25.91,20,0,1.81,EG,1683177071
468,thulamahashi,-24.7246,31.1994,17.82,88,6,1.53,ZA,1683177071
469,mathba,22.2855,89.9629,34.51,39,89,2.69,BD,1683177071
470,mzimba,-11.9,33.6,14.99,83,2,3.06,MW,1683177071
471,tlahualilo de zaragoza,26.1167,-103.45,25.7,24,74,0.68,MX,1683177072
472,naze,28.3667,129.4833,20.08,76,100,6.41,JP,1683177072
473,chingirlau,51.095,54.0814,17.12,25,100,8.03,KZ,1683177072
474,nicoya,10.1483,-85.452,26.99,75,64,2.92,CR,1683177072
475,la mira,18.035,-102.3266,24.94,75,66,1.65,MX,1683177072
476,tual,-5.6667,132.75,28.6,79,29,5.62,ID,1683177073
477,sur,22.5667,59.5289,28.25,74,3,3.09,OM,1683177073
478,arteche,12.2645,125.4048,29.56,68,88,4.05,PH,1683177073
479,bassar,9.25,0.7833,23.01,86,58,1.49,TG,1683177073
480,port macquarie,-31.4333,152.9167,20.5,38,0,5.21,AU,1683177073
481,rio grande,-32.035,-52.0986,18.46,89,100,5.65,BR,1683176601
482,cherdyn',60.403,56.4787,13.66,70,13,5.03,RU,1683177074
483,olovyannaya,50.95,115.5667,12.14,13,39,4.66,RU,1683177074
484,samus',56.7475,84.6992,13.89,46,100,1.25,RU,1683177074
485,kamaishi,39.2667,141.8833,21.1,38,18,4.15,JP,1683177074
486,georgievka,49.3314,81.5761,9.87,39,17,6.87,KZ,1683177074
487,cabedelo,-6.9811,-34.8339,25.37,84,26,3.31,BR,1683177075
488,lubana,56.9,26.7167,3.91,68,4,2.64,LV,1683177075
489,vilaseca,42.0617,2.2553,14.96,87,80,1.93,ES,1683177075
490,bonthe,7.5264,-12.505,24.66,89,100,1.42,SL,1683177075
491,esmeralda,21.8525,-78.1169,24.49,85,98,1.31,CU,1683177075
492,takoradi,4.8845,-1.7554,26.65,84,52,2.4,GH,1683176983
493,asau,46.4333,26.4,9.6,62,100,0.82,RO,1683177076
494,watampone,-4.5386,120.3279,26.02,91,99,3.74,ID,1683177076
495,fort mcmurray,56.7268,-111.381,16.69,73,23,3.3,CA,1683177076
496,caconda,-13.7333,15.0667,11.92,63,21,1.91,AO,1683177076
497,kyshtovka,56.555,76.6271,15.18,27,99,6.51,RU,1683177076
498,thiers,45.8333,3.5,12.18,60,75,2.45,FR,1683177077
499,novaya ladoga,60.1025,32.3019,3.84,79,85,3.7,RU,1683177077
500,palikir - national government center,6.9248,158.1611,24.47,100,100,1.54,FM,1683177077
501,qulsary,46.9531,54.0198,17.27,57,83,6.07,KZ,1683177077
502,rikaze,29.25,88.8833,13.11,23,53,1.22,CN,1683177078
503,cabo san lucas,22.8909,-109.9124,23.62,69,100,0.45,MX,1683176899
504,siwa oasis,29.2041,25.5195,25.23,25,39,5.69,EG,1683177078
505,magugu,-4.0167,35.7667,20.57,76,67,0.76,TZ,1683177078
506,tiassale,5.8983,-4.8283,24.14,97,78,1.06,CI,1683177078
507,colby,39.3958,-101.0524,15.18,67,0,5.14,US,1683177079
508,mossel bay,-34.1831,22.146,15.43,89,30,3.29,ZA,1683177079
509,cooper's town,26.8667,-77.5167,24.05,63,6,1.56,BS,1683177077
510,kourou,5.1552,-52.6478,26.03,75,94,4.24,GF,1683177079
511,usogorsk,63.4106,48.6872,3.01,61,60,6.38,RU,1683177079
512,shimo-furano,43.35,142.3833,20.49,42,100,4.13,JP,1683177080
513,mildura,-34.2,142.15,18.93,47,0,2.5,AU,1683177080
514,piedecuesta,6.9879,-73.0495,20.44,82,45,2.49,CO,1683177080
515,tangalle,6.024,80.7911,29.09,54,100,2.21,LK,1683177080
516,hashtrud,37.4779,47.0508,6.62,62,98,1.56,IR,1683177080
517,miri,4.4148,114.0089,29.92,73,77,2.89,MY,1683177081
518,paita,-5.0892,-81.1144,24.66,79,68,5.6,PE,1683177081
519,baker city,44.7749,-117.8344,14.77,54,0,0.0,US,1683176956
520,mahina,-17.5065,-149.489,28.75,74,20,1.54,PF,1683177081
521,puerto yuca,2.9383,-73.2083,22.58,96,85,1.6,CO,1683177081
522,ghat,24.9647,10.1728,21.58,15,0,3.35,LY,1683177081
523,sonoita,31.85,-112.8333,17.57,35,0,6.52,MX,1683177082
524,worland,44.0169,-107.9554,19.38,40,0,5.14,US,1683177082
525,yermentau,51.6214,73.1069,9.29,30,2,1.3,KZ,1683177082
526,concepcion,-36.827,-73.0498,7.89,93,1,1.54,CL,1683177082
527,liski,50.9841,39.5155,14.23,72,92,3.16,RU,1683177082
528,arkhangel'sk,64.5401,40.5433,1.34,85,100,6.25,RU,1683177082
529,klamath falls,42.2249,-121.7817,9.92,71,40,3.09,US,1683176839
530,severobaykal'sk,55.65,109.3167,3.07,63,9,0.66,RU,1683177083
531,nouadhibou,20.931,-17.0347,19.99,77,100,6.17,MR,1683177084
532,ayame,5.6083,-3.1563,23.99,96,97,0.85,CI,1683177084
533,bargaal,11.2864,51.0773,29.79,75,69,2.11,SO,1683177084
534,mirny,62.5353,113.9611,2.9,93,99,5.03,RU,1683177084
535,mecca,21.4267,39.8261,30.08,18,0,0.88,SA,1683176894
